{
"type": "FeatureCollection",
"crs": { "type": "name", "properties": { "name": "urn:ogc:def:crs:OGC:1.3:CRS84" } },
                                                                                                                                  
"features": [
{ "type": "Feature", "properties": { "OBJECTID": 1, "EBONOMBRE": "B- 1 ESTACION CHAPINERO", "EBODIRECCI": "CL 62 9A 19", "EBOTELEFON": "2175300", "EBOJEFE": "TTE MAURICIO AYALA VASQUEZ" }, "geometry": { "type": "Point", "coordinates": [ -74.062537646550709, 4.647991801308304 ] } },
{ "type": "Feature", "properties": { "OBJECTID": 2, "EBONOMBRE": "B- 2 ESTACION CENTRAL", "EBODIRECCI": "CL 11 20A 10", "EBOTELEFON": "3602845", "EBOJEFE": "TTE JUAN MANUEL BELTRAN GARCIA" }, "geometry": { "type": "Point", "coordinates": [ -74.087843645441865, 4.606803325273363 ] } },
{ "type": "Feature", "properties": { "OBJECTID": 3, "EBONOMBRE": "B- 3 ESTACION SUR", "EBODIRECCI": "AK 27 19A 20 SUR", "EBOTELEFON": "2727721 - 2727701", "EBOJEFE": "TTE LUIS CASTELLANOS RODRIGUEZ" }, "geometry": { "type": "Point", "coordinates": [ -74.108149840303383, 4.589513260180259 ] } },
{ "type": "Feature", "properties": { "OBJECTID": 4, "EBONOMBRE": "B- 4 ESTACION PUENTE ARANDA", "EBODIRECCI": "CL 20 68A 06", "EBOTELEFON": "2600106 - 2066687", "EBOJEFE": "TTE GONZALO EMIRO CUELLAR" }, "geometry": { "type": "Point", "coordinates": [ -74.112858160523444, 4.645622463685952 ] } },
{ "type": "Feature", "properties": { "OBJECTID": 5, "EBONOMBRE": "B- 6 ESTACION FONTIBON", "EBODIRECCI": "CL 22 95 20 - CL 22 95 64", "EBOTELEFON": "2676810 - 2676046", "EBOJEFE": "TTE MIGUEL ENRIQUE CABRA MARTINEZ" }, "geometry": { "type": "Point", "coordinates": [ -74.142977904882514, 4.669606438026631 ] } },
{ "type": "Feature", "properties": { "OBJECTID": 6, "EBONOMBRE": "B- 7 ESTACION FERIAS", "EBODIRECCI": "KR 69J 72 61", "EBOTELEFON": "2508878 - 2506572", "EBOJEFE": "TTE MANUEL ANARDO RUIZ MEDINA" }, "geometry": { "type": "Point", "coordinates": [ -74.089912370607408, 4.683351776213277 ] } },
{ "type": "Feature", "properties": { "OBJECTID": 7, "EBONOMBRE": "B- 9 ESTACION BELLAVISTA", "EBODIRECCI": "CL 37 SUR 9A 20", "EBOTELEFON": "2076167 - 2076143", "EBOJEFE": "TTE GUILLERMO DURAN" }, "geometry": { "type": "Point", "coordinates": [ -74.086935942741718, 4.551730989090384 ] } },
{ "type": "Feature", "properties": { "OBJECTID": 8, "EBONOMBRE": "B-10 ESTACION MARICHUELA", "EBODIRECCI": "KR 1A 76A BIS 09 SUR MJ", "EBOTELEFON": "2002342 - 2001509", "EBOJEFE": "TTE JAIRO BOLANOS" }, "geometry": { "type": "Point", "coordinates": [ -74.116991111742607, 4.512008389957311 ] } },
{ "type": "Feature", "properties": { "OBJECTID": 9, "EBONOMBRE": "B-11 ESTACION CANDELARIA", "EBODIRECCI": "CL 62 SUR 22B 85", "EBOTELEFON": "7151464 - 7151613", "EBOJEFE": "TTE EUCLIDES MANCIPE TABARES" }, "geometry": { "type": "Point", "coordinates": [ -74.145439706745094, 4.567687613374114 ] } },
{ "type": "Feature", "properties": { "OBJECTID": 10, "EBONOMBRE": "B-12 ESTACION SUBA", "EBODIRECCI": "KR 92 146C 49", "EBOTELEFON": "6804141 - 6857486", "EBOJEFE": "TTE DIEGO CASTRO SIERRA" }, "geometry": { "type": "Point", "coordinates": [ -74.085226951141749, 4.741197997875204 ] } },
{ "type": "Feature", "properties": { "OBJECTID": 11, "EBONOMBRE": "B-13 ESTACION CAOBOS SALAZAR", "EBODIRECCI": "AK 15 145 50", "EBOTELEFON": "6143290 - 2164078", "EBOJEFE": "TTE FIDEL HERMOGENES MEDINA MEDINA" }, "geometry": { "type": "Point", "coordinates": [ -74.040711015135116, 4.727540852628723 ] } },
{ "type": "Feature", "properties": { "OBJECTID": 12, "EBONOMBRE": "B-15 ESTACION GARCES NAVAS", "EBODIRECCI": "KR 110 77 24 MJ 1", "EBOTELEFON": "2272658 - 2273140", "EBOJEFE": "TTE JAIRO ENRIQUE VELASQUEZ RODRIGUEZ" }, "geometry": { "type": "Point", "coordinates": [ -74.120748123759711, 4.714120471753276 ] } },
{ "type": "Feature", "properties": { "OBJECTID": 13, "EBONOMBRE": "B-16 ESTACION VENECIA", "EBODIRECCI": "DG 49A SUR 49 61", "EBOTELEFON": "2048209", "EBOJEFE": "TTE OMAIRA PINEROS MENDOZA" }, "geometry": { "type": "Point", "coordinates": [ -74.13587046443098, 4.591289109879961 ] } },
{ "type": "Feature", "properties": { "OBJECTID": 14, "EBONOMBRE": "B-17 ESTACION CENTRO HISTORICO", "EBODIRECCI": "CL 9 3 12 ESTE", "EBOTELEFON": "2861305 - 2861288", "EBOJEFE": "TTE EDUVIN TOVAR MORA" }, "geometry": { "type": "Point", "coordinates": [ -74.069944938322863, 4.592240803360307 ] } },
{ "type": "Feature", "properties": { "OBJECTID": 15, "EBONOMBRE": "B- 8 ESTACION BOSA", "EBODIRECCI": "CL 63 SUR 80K 15", "EBOTELEFON": "7767991 - 7767361 - 7768904", "EBOJEFE": "TTE MARIA DEL ROSARIO LUNA" }, "geometry": { "type": "Point", "coordinates": [ -74.186049547383789, 4.610929837171383 ] } },
{ "type": "Feature", "properties": { "OBJECTID": 16, "EBONOMBRE": "B- 5 ESTACION KENNEDY", "EBODIRECCI": "KR 79 41D 20 SUR", "EBOTELEFON": "2648343 - 2648232", "EBOJEFE": "TTE JORGE ENRIQUE NOY HILARION" }, "geometry": { "type": "Point", "coordinates": [ -74.160170511437286, 4.620243299327847 ] } },
{ "type": "Feature", "properties": { "OBJECTID": 17, "EBONOMBRE": "B-14 ESTACION BICENTARIO", "EBODIRECCI": "KR 55A 167 51", "EBOTELEFON": "4838153", "EBOJEFE": "TTE JAIRO ENRIQUE VELASQUEZ RODRIGUEZ" }, "geometry": { "type": "Point", "coordinates": [ -74.056746575407658, 4.749961596851912 ] } }
]
}